{
    "city_name": "新北市",
    "stores": [
        {
            "name": "八里水灣店",
            "address": "新北市八里區249中山路1段125、127號1樓",
            "phone": "02-89785431",
            "lat": 25.159299850464,
            "lng": 121.41300201416,
            "service": "提款服務,悠遊卡加值,咖啡機,相片沖洗機,Life-ET(購票)服務,一卡通",
            "_id": "911"
        },
        {
            "name": "北縣八里店",
            "address": "新北市八里區249中山路一段177號",
            "phone": "02-26195488",
            "lat": 25.158599853516,
            "lng": 121.41200256348,
            "service": "提款服務,悠遊卡加值,咖啡機,相片沖洗機,Life-ET(購票)服務,一卡通",
            "_id": "1065"
        },
        {
            "name": "北縣商港店",
            "address": "新北市八里區249商港路46.48號",
            "phone": "02-26106697",
            "lat": 25.145299911499,
            "lng": 121.39600372314,
            "service": "提款服務,悠遊卡加值,咖啡機,相片沖洗機,Life-ET(購票)服務,一卡通",
            "_id": "99"
        },
        {
            "name": "北縣米倉店",
            "address": "新北市八里區249龍米路一段215.217號",
            "phone": "02-26185412",
            "lat": 25.131700515747,
            "lng": 121.45099639893,
            "service": "提款服務,悠遊卡加值,咖啡機,相片沖洗機,Life-ET(購票)服務",
            "_id": "394"
        },
        {
            "name": "八里聖心店",
            "address": "新北市八里區249龍米路二段57、59號",
            "phone": "02-89780124",
            "lat": 25.140300750732,
            "lng": 121.44799804688,
            "service": "",
            "_id": "899"
        },
        {
            "name": "北縣芝蘭店",
            "address": "新北市三芝區252中正路一段68號",
            "phone": "02-26364609",
            "lat": 25.257699966431,
            "lng": 121.50399780273,
            "service": "提款服務,悠遊卡加值,咖啡機,Life-ET(購票)服務,一卡通",
            "_id": "1034"
        },
        {
            "name": "三重美堤二店",
            "address": "新北市三重區241二重疏洪道疏洪十六路重新橋下",
            "phone": "",
            "lat": 25.068271636963,
            "lng": 121.46932220459,
            "service": "",
            "_id": "391"
        },
        {
            "name": "三重美堤店",
            "address": "新北市三重區241二重疏洪道疏洪十六路重新橋下",
            "phone": "02-29745620",
            "lat": 25.049600601196,
            "lng": 121.48000335693,
            "service": "悠遊卡加值,咖啡機,Life-ET(購票)服務,一卡通",
            "_id": "623"
        },
        {
            "name": "北縣力福店",
            "address": "新北市三重區241力行路二段51及53號",
            "phone": "02-22808731",
            "lat": 25.07439994812,
            "lng": 121.4820022583,
            "service": "提款服務,悠遊卡加值,咖啡機,相片沖洗機,Life-ET(購票)服務",
            "_id": "1013"
        },
        {
            "name": "北縣三民店",
            "address": "新北市三重區241三民街100,102號",
            "phone": "02-29855402",
            "lat": 25.063199996948,
            "lng": 121.48500061035,
            "service": "提款服務,悠遊卡加值,咖啡機,相片沖洗機,Life-ET(購票)服務,一卡通",
            "_id": "991"
        },
        {
            "name": "北縣三和二店",
            "address": "新北市三重區241三和路三段137號",
            "phone": "02-29819274",
            "lat": 25.073499679565,
            "lng": 121.49199676514,
            "service": "提款服務,悠遊卡加值,咖啡機,相片沖洗機,Life-ET(購票)服務",
            "_id": "1014"
        },
        {
            "name": "北縣仁和店",
            "address": "新北市三重區241三和路四段233號",
            "phone": "02-22870458",
            "lat": 25.079999923706,
            "lng": 121.48100280762,
            "service": "提款服務,悠遊卡加值,咖啡機,相片沖洗機,Life-ET(購票)服務,一卡通",
            "_id": "1016"
        },
        {
            "name": "北縣重民店",
            "address": "新北市三重區241三陽路59號",
            "phone": "02-89829106",
            "lat": 25.05890083313,
            "lng": 121.48500061035,
            "service": "悠遊卡加值,Life-ET(購票)服務",
            "_id": "84"
        },
        {
            "name": "三重今大店",
            "address": "新北市三重區241大仁街52號",
            "phone": "02-89781422",
            "lat": 25.064800262451,
            "lng": 121.49199676514,
            "service": "提款服務,悠遊卡加值,咖啡機,相片沖洗機,Life-ET(購票)服務,一卡通",
            "_id": "851"
        },
        {
            "name": "北縣重大店",
            "address": "新北市三重區241大仁街78號",
            "phone": "02-89816428",
            "lat": 25.065200805664,
            "lng": 121.49299621582,
            "service": "提款服務,悠遊卡加值,咖啡機,Life-ET(購票)服務,一卡通",
            "_id": "135"
        },
        {
            "name": "北縣大同北店",
            "address": "新北市三重區241大同北路91號                          ",
            "phone": "02-29874346",
            "lat": 25.06369972229,
            "lng": 121.49500274658,
            "service": "提款服務,悠遊卡加值,咖啡機,Life-ET(購票)服務,一卡通",
            "_id": "1012"
        },
        {
            "name": "三重重南店",
            "address": "新北市三重區241大同南路148號1樓",
            "phone": "02-89785450",
            "lat": 25.057800292969,
            "lng": 121.49700164795,
            "service": "提款服務,悠遊卡加值,咖啡機,相片沖洗機,Life-ET(購票)服務,一卡通",
            "_id": "808"
        },
        {
            "name": "北縣重鑫店",
            "address": "新北市三重區241大同南路153,153-1號",
            "phone": "02-29741129",
            "lat": 25.056800842285,
            "lng": 121.49700164795,
            "service": "提款服務,悠遊卡加值,咖啡機,Life-ET(購票)服務,一卡通",
            "_id": "1072"
        },
        {
            "name": "北縣重安店",
            "address": "新北市三重區241大同南路69號",
            "phone": "02-29720701",
            "lat": 25.059600830078,
            "lng": 121.49600219727,
            "service": "提款服務,悠遊卡加值,咖啡機,Life-ET(購票)服務,一卡通",
            "_id": "1063"
        },
        {
            "name": "北縣重玉店",
            "address": "新北市三重區241中央北路132號",
            "phone": "02-29701591",
            "lat": 25.067899703979,
            "lng": 121.5,
            "service": "提款服務,悠遊卡加值,咖啡機,Life-ET(購票)服務,一卡通",
            "_id": "1064"
        },
        {
            "name": "北縣重錦店",
            "address": "新北市三重區241中央北路2號",
            "phone": "02-29778824",
            "lat": 25.06369972229,
            "lng": 121.50099945068,
            "service": "提款服務,悠遊卡加值,咖啡機,Life-ET(購票)服務,一卡通",
            "_id": "244"
        },
        {
            "name": "北縣中央北店",
            "address": "新北市三重區241中央北路68號",
            "phone": "02-29789248",
            "lat": 25.066200256348,
            "lng": 121.5,
            "service": "提款服務,悠遊卡加值,咖啡機,Life-ET(購票)服務,一卡通",
            "_id": "14"
        },
        {
            "name": "三重重宜店",
            "address": "新北市三重區241中央南路74號",
            "phone": "02-89783964",
            "lat": 25.061100006104,
            "lng": 121.50199890137,
            "service": "提款服務,悠遊卡加值,咖啡機,相片沖洗機,Life-ET(購票)服務,一卡通",
            "_id": "768"
        },
        {
            "name": "北縣中陽店",
            "address": "新北市三重區241中正北路105號",
            "phone": "02-29833175",
            "lat": 25.063299179077,
            "lng": 121.48899841309,
            "service": "提款服務,悠遊卡加值,咖啡機,相片沖洗機,Life-ET(購票)服務,一卡通",
            "_id": "1232"
        },
        {
            "name": "三重星光店",
            "address": "新北市三重區241中正北路25巷5號及7號",
            "phone": "02-89783402",
            "lat": 25.062000274658,
            "lng": 121.49299621582,
            "service": "提款服務,悠遊卡加值,咖啡機,相片沖洗機,Life-ET(購票)服務,一卡通",
            "_id": "695"
        },
        {
            "name": "三重商工店",
            "address": "新北市三重區241中正北路282號及284號1樓全部",
            "phone": "02-89786746",
            "lat": 25.068500518799,
            "lng": 121.48100280762,
            "service": "提款服務,悠遊卡加值,咖啡機,相片沖洗機,Life-ET(購票)服務,一卡通",
            "_id": "809"
        },
        {
            "name": "三重重賓店",
            "address": "新北市三重區241中正北路415號及417號1樓全部",
            "phone": "02-89785492",
            "lat": 25.072200775146,
            "lng": 121.47100067139,
            "service": "悠遊卡加值,咖啡機,相片沖洗機,Life-ET(購票)服務,一卡通",
            "_id": "826"
        },
        {
            "name": "北縣中正北店",
            "address": "新北市三重區241中正北路518號",
            "phone": "02-29885754",
            "lat": 25.071699142456,
            "lng": 121.47200012207,
            "service": "提款服務,悠遊卡加值,咖啡機,Life-ET(購票)服務,一卡通",
            "_id": "1224"
        },
        {
            "name": "北縣中陽二店",
            "address": "新北市三重區241中正北路66號",
            "phone": "02-29894955",
            "lat": 25.064500808716,
            "lng": 121.48699951172,
            "service": "提款服務,悠遊卡加值,咖啡機,Life-ET(購票)服務,一卡通",
            "_id": "7"
        },
        {
            "name": "北縣重鈴店",
            "address": "新北市三重區241中華路18號",
            "phone": "02-29808277",
            "lat": 25.060699462891,
            "lng": 121.48300170898,
            "service": "提款服務,悠遊卡加值,咖啡機,相片沖洗機,Life-ET(購票)服務",
            "_id": "1039"
        },
        {
            "name": "北縣重萬店",
            "address": "新北市三重區241中華路92號及94號",
            "phone": "02-89827310",
            "lat": 25.062999725342,
            "lng": 121.48300170898,
            "service": "提款服務,悠遊卡加值,Life-ET(購票)服務,一卡通",
            "_id": "1150"
        },
        {
            "name": "北縣中興北店",
            "address": "新北市三重區241中興北街134號",
            "phone": "02-29990530",
            "lat": 25.05590057373,
            "lng": 121.46900177002,
            "service": "提款服務,悠遊卡加值,咖啡機,Life-ET(購票)服務",
            "_id": "997"
        },
        {
            "name": "北縣中北二店",
            "address": "新北市三重區241中興北街153號",
            "phone": "",
            "lat": 25.054792404175,
            "lng": 121.46927642822,
            "service": "",
            "_id": "166"
        },
        {
            "name": "北縣中北店",
            "address": "新北市三重區241中興北街153號",
            "phone": "02-22789146",
            "lat": 25.052299499512,
            "lng": 121.46900177002,
            "service": "悠遊卡加值,咖啡機,Life-ET(購票)服務",
            "_id": "1237"
        },
        {
            "name": "北縣中興二店",
            "address": "新北市三重區241中興北街195,197號",
            "phone": "02-22781425",
            "lat": 25.057399749756,
            "lng": 121.46900177002,
            "service": "提款服務,悠遊卡加值,咖啡機,Life-ET(購票)服務",
            "_id": "1000"
        },
        {
            "name": "北縣中興三店",
            "address": "新北市三重區241中興北街42號",
            "phone": "02-22781681",
            "lat": 25.049299240112,
            "lng": 121.4700012207,
            "service": "提款服務,悠遊卡加值,咖啡機,相片沖洗機,Life-ET(購票)服務,一卡通",
            "_id": "1006"
        },
        {
            "name": "北縣五華店",
            "address": "新北市三重區241五華街125號",
            "phone": "02-29878144",
            "lat": 25.084199905396,
            "lng": 121.49099731445,
            "service": "提款服務,悠遊卡加值,Life-ET(購票)服務,一卡通",
            "_id": "989"
        },
        {
            "name": "北縣五華三店",
            "address": "新北市三重區241五華街60號",
            "phone": "02-29871152",
            "lat": 25.081399917603,
            "lng": 121.4940032959,
            "service": "悠遊卡加值,Life-ET(購票)服務",
            "_id": "1008"
        },
        {
            "name": "三重福華店",
            "address": "新北市三重區241五華街70號",
            "phone": "02-89786794",
            "lat": 25.081800460815,
            "lng": 121.49299621582,
            "service": "提款服務,悠遊卡加值,咖啡機,相片沖洗機,Life-ET(購票)服務,一卡通",
            "_id": "872"
        },
        {
            "name": "北縣重化店",
            "address": "新北市三重區241仁化街118.120號",
            "phone": "02-29778270",
            "lat": 25.058300018311,
            "lng": 121.49500274658,
            "service": "提款服務,悠遊卡加值,咖啡機,相片沖洗機,Life-ET(購票)服務,一卡通",
            "_id": "1118"
        },
        {
            "name": "北縣仁安店",
            "address": "新北市三重區241仁安街2號",
            "phone": "02-82875643",
            "lat": 25.083999633789,
            "lng": 121.48500061035,
            "service": "悠遊卡加值,咖啡機,相片沖洗機,Life-ET(購票)服務,一卡通",
            "_id": "573"
        },
        {
            "name": "三重美慈店",
            "address": "新北市三重區241仁美街96巷1號1樓全部",
            "phone": "02-89783174",
            "lat": 25.080200195312,
            "lng": 121.48600006104,
            "service": "提款服務,悠遊卡加值,咖啡機,相片沖洗機,Life-ET(購票)服務",
            "_id": "781"
        },
        {
            "name": "北縣三愛三店",
            "address": "新北市三重區241仁愛街253號",
            "phone": "02-29714594",
            "lat": 25.078300476074,
            "lng": 121.49299621582,
            "service": "悠遊卡加值,Life-ET(購票)服務",
            "_id": "1229"
        },
        {
            "name": "三重溪美店",
            "address": "新北市三重區241仁愛街331號",
            "phone": "02-89787590",
            "lat": 25.079700469971,
            "lng": 121.49199676514,
            "service": "悠遊卡加值,咖啡機,相片沖洗機,Life-ET(購票)服務",
            "_id": "857"
        },
        {
            "name": "三重慈化店",
            "address": "新北市三重區241仁愛街382號及溪尾街165巷59、61號",
            "phone": "02-89787314",
            "lat": 25.080699920654,
            "lng": 121.49099731445,
            "service": "提款服務,悠遊卡加值,咖啡機,相片沖洗機,Life-ET(購票)服務,一卡通",
            "_id": "862"
        },
        {
            "name": "北縣重旺店",
            "address": "新北市三重區241仁愛街70號",
            "phone": "02-89735326",
            "lat": 25.07320022583,
            "lng": 121.49600219727,
            "service": "提款服務,悠遊卡加值,咖啡機,Life-ET(購票)服務,一卡通",
            "_id": "130"
        },
        {
            "name": "三重興義店",
            "address": "新北市三重區241仁義街12號壹樓部份及仁興街39巷37號壹樓部份",
            "phone": "02-89781040",
            "lat": 25.076000213623,
            "lng": 121.5,
            "service": "提款服務,悠遊卡加值,咖啡機,相片沖洗機,Life-ET(購票)服務,一卡通",
            "_id": "898"
        },
        {
            "name": "北縣仁義二店",
            "address": "新北市三重區241仁義街209號",
            "phone": "02-29869325",
            "lat": 25.081800460815,
            "lng": 121.49700164795,
            "service": "提款服務,悠遊卡加值,咖啡機,Life-ET(購票)服務,一卡通",
            "_id": "998"
        },
        {
            "name": "北縣重盈店",
            "address": "新北市三重區241文化北路10號",
            "phone": "02-29717730",
            "lat": 25.06369972229,
            "lng": 121.49900054932,
            "service": "提款服務,悠遊卡加值,咖啡機,Life-ET(購票)服務,一卡通",
            "_id": "171"
        },
        {
            "name": "三重文化店",
            "address": "新北市三重區241文化北路116號一樓",
            "phone": "02-89783792",
            "lat": 25.066400527954,
            "lng": 121.49800109863,
            "service": "提款服務,悠遊卡加值,咖啡機,相片沖洗機,Life-ET(購票)服務,一卡通",
            "_id": "939"
        },
        {
            "name": "北縣文安店",
            "address": "新北市三重區241文化北路75號",
            "phone": "02-29776911",
            "lat": 25.066799163818,
            "lng": 121.49800109863,
            "service": "提款服務,悠遊卡加值,Life-ET(購票)服務,一卡通",
            "_id": "1238"
        },
        {
            "name": "北縣正義店",
            "address": "新北市三重區241正義北路280號",
            "phone": "02-29836291",
            "lat": 25.069200515747,
            "lng": 121.49600219727,
            "service": "提款服務,悠遊卡加值,咖啡機,Life-ET(購票)服務,一卡通",
            "_id": "992"
        },
        {
            "name": "北縣重永店",
            "address": "新北市三重區241永福街11號",
            "phone": "02-22800283",
            "lat": 25.078300476074,
            "lng": 121.4820022583,
            "service": "提款服務,悠遊卡加值,咖啡機,Life-ET(購票)服務,一卡通",
            "_id": "1084"
        },
        {
            "name": "北縣重福店",
            "address": "新北市三重區241永福街256及258號",
            "phone": "02-82873428",
            "lat": 25.074800491333,
            "lng": 121.48400115967,
            "service": "提款服務,悠遊卡加值,咖啡機,相片沖洗機,Life-ET(購票)服務",
            "_id": "1029"
        },
        {
            "name": "三重福仁店",
            "address": "新北市三重區241永福街97號及99號",
            "phone": "02-22862845",
            "lat": 25.07740020752,
            "lng": 121.47899627686,
            "service": "提款服務,悠遊卡加值,咖啡機,相片沖洗機,Life-ET(購票)服務,一卡通",
            "_id": "672"
        },
        {
            "name": "北縣重富店",
            "address": "新北市三重區241光復路一段85、85-2號",
            "phone": "02-29996281",
            "lat": 25.050399780273,
            "lng": 121.47200012207,
            "service": "提款服務,悠遊卡加值,咖啡機,相片沖洗機,霜淇淋機,Life-ET(購票)服務,一卡通",
            "_id": "460"
        },
        {
            "name": "北縣田倉店",
            "address": "新北市三重區241光復路二段51號",
            "phone": "02-85122825",
            "lat": 25.05590057373,
            "lng": 121.47200012207,
            "service": "提款服務,悠遊卡加值,咖啡機,相片沖洗機,Life-ET(購票)服務",
            "_id": "529"
        },
        {
            "name": "北縣重光店",
            "address": "新北市三重區241光華路17號",
            "phone": "02-29956073",
            "lat": 25.059999465942,
            "lng": 121.46900177002,
            "service": "提款服務,悠遊卡加值,咖啡機,Life-ET(購票)服務",
            "_id": "1027"
        },
        {
            "name": "北縣重武店",
            "address": "新北市三重區241安慶街203之1號",
            "phone": "02-89851103",
            "lat": 25.068300247192,
            "lng": 121.49299621582,
            "service": "提款服務,悠遊卡加值,咖啡機,Life-ET(購票)服務",
            "_id": "355"
        },
        {
            "name": "北縣重強店",
            "address": "新北市三重區241自強路一段164,166號",
            "phone": "02-29864907",
            "lat": 25.066299438477,
            "lng": 121.49500274658,
            "service": "提款服務,悠遊卡加值,咖啡機,Life-ET(購票)服務,一卡通",
            "_id": "1024"
        },
        {
            "name": "北縣重國店",
            "address": "新北市三重區241自強路二段74巷1號及特76號",
            "phone": "02-89856440",
            "lat": 25.069999694824,
            "lng": 121.4879989624,
            "service": "提款服務,悠遊卡加值,咖啡機,相片沖洗機,Life-ET(購票)服務,一卡通",
            "_id": "469"
        },
        {
            "name": "北縣車路頭店",
            "address": "新北市三重區241車路頭街35號",
            "phone": "02-29809560",
            "lat": 25.071300506592,
            "lng": 121.48400115967,
            "service": "提款服務,悠遊卡加值,咖啡機,Life-ET(購票)服務,一卡通",
            "_id": "1009"
        },
        {
            "name": "北縣田心店",
            "address": "新北市三重區241忠孝路三段50巷98號",
            "phone": "02-29842643",
            "lat": 25.064199447632,
            "lng": 121.48300170898,
            "service": "提款服務,悠遊卡加值,相片沖洗機,Life-ET(購票)服務,一卡通",
            "_id": "496"
        },
        {
            "name": "北縣重陽二店",
            "address": "新北市三重區241重陽路四段132,134號",
            "phone": "02-89827382",
            "lat": 25.071500778198,
            "lng": 121.49299621582,
            "service": "提款服務,悠遊卡加值,咖啡機,Life-ET(購票)服務",
            "_id": "1225"
        },
        {
            "name": "北縣三重店",
            "address": "新北市三重區241重新路2段29號",
            "phone": "02-29819083",
            "lat": 25.062299728394,
            "lng": 121.49800109863,
            "service": "提款服務,悠遊卡加值,咖啡機,相片沖洗機,Life-ET(購票)服務,一卡通",
            "_id": "1018"
        },
        {
            "name": "北縣重樂店",
            "address": "新北市三重區241重新路三段2號",
            "phone": "02-29748415",
            "lat": 25.061399459839,
            "lng": 121.49600219727,
            "service": "提款服務,悠遊卡加值,咖啡機,Life-ET(購票)服務,一卡通",
            "_id": "534"
        },
        {
            "name": "北縣重正店",
            "address": "新北市三重區241重新路三段98及100號",
            "phone": "02-29723779",
            "lat": 25.060600280762,
            "lng": 121.49299621582,
            "service": "提款服務,悠遊卡加值,咖啡機,相片沖洗機,Life-ET(購票)服務,一卡通",
            "_id": "1019"
        },
        {
            "name": "北縣湯城店",
            "address": "新北市三重區241重新路五段609巷16之7號",
            "phone": "02-29992521",
            "lat": 25.046499252319,
            "lng": 121.46800231934,
            "service": "提款服務,悠遊卡加值,咖啡機,相片沖洗機,Life-ET(購票)服務,一卡通",
            "_id": "598"
        },
        {
            "name": "北縣金陵店",
            "address": "新北市三重區241重新路五段656號",
            "phone": "02-29997823",
            "lat": 25.042100906372,
            "lng": 121.46600341797,
            "service": "悠遊卡加值,一卡通",
            "_id": "354"
        },
        {
            "name": "北縣重集店",
            "address": "新北市三重區241重新路四段176號",
            "phone": "02-29752340",
            "lat": 25.055200576782,
            "lng": 121.48600006104,
            "service": "提款服務,悠遊卡加值,咖啡機,相片沖洗機,Life-ET(購票)服務,一卡通",
            "_id": "472"
        },
        {
            "name": "北縣重新店",
            "address": "新北市三重區241重新路四段244巷40號",
            "phone": "02-29766464",
            "lat": 25.053699493408,
            "lng": 121.4879989624,
            "service": "提款服務,悠遊卡加值,咖啡機,Life-ET(購票)服務",
            "_id": "995"
        },
        {
            "name": "北縣福音店",
            "address": "新北市三重區241重新路四段89號",
            "phone": "02-29752352",
            "lat": 25.055599212646,
            "lng": 121.48600006104,
            "service": "提款服務,悠遊卡加值,咖啡機,Life-ET(購票)服務,一卡通",
            "_id": "1239"
        },
        {
            "name": "北縣進安店",
            "address": "新北市三重區241進安街76號",
            "phone": "02-82875806",
            "lat": 25.084600448608,
            "lng": 121.49600219727,
            "service": "悠遊卡加值,咖啡機,Life-ET(購票)服務,一卡通",
            "_id": "567"
        },
        {
            "name": "三重重高店",
            "address": "新北市三重區241集美街211、213號一樓全部",
            "phone": "02-89781224",
            "lat": 25.054500579834,
            "lng": 121.49199676514,
            "service": "悠遊卡加值,咖啡機,相片沖洗機,Life-ET(購票)服務",
            "_id": "912"
        },
        {
            "name": "北縣富美店",
            "address": "新北市三重區241溪尾街１０８巷５８號",
            "phone": "02-22861822",
            "lat": 25.07799911499,
            "lng": 121.48699951172,
            "service": "提款服務,悠遊卡加值,相片沖洗機,Life-ET(購票)服務",
            "_id": "557"
        },
        {
            "name": "北縣溪尾二店",
            "address": "新北市三重區241溪尾街122號",
            "phone": "02-22873930",
            "lat": 25.078899383545,
            "lng": 121.48899841309,
            "service": "悠遊卡加值,咖啡機,Life-ET(購票)服務",
            "_id": "994"
        },
        {
            "name": "北縣溪尾店",
            "address": "新北市三重區241溪尾街192號",
            "phone": "02-22862694",
            "lat": 25.080900192261,
            "lng": 121.4879989624,
            "service": "提款服務,悠遊卡加值,Life-ET(購票)服務,一卡通",
            "_id": "990"
        },
        {
            "name": "三重美華店",
            "address": "新北市三重區241溪尾街293號及295號",
            "phone": "02-89781726",
            "lat": 25.083099365234,
            "lng": 121.4879989624,
            "service": "提款服務,悠遊卡加值,咖啡機,相片沖洗機,Life-ET(購票)服務",
            "_id": "783"
        },
        {
            "name": "三重協成店",
            "address": "新北市三重區241溪尾街314、316、318號",
            "phone": "02-28577340",
            "lat": 25.084400177002,
            "lng": 121.4879989624,
            "service": "提款服務,悠遊卡加值,咖啡機,相片沖洗機,Life-ET(購票)服務,一卡通",
            "_id": "612"
        },
        {
            "name": "北縣福德南店",
            "address": "新北市三重區241福德南路23號",
            "phone": "02-29734059",
            "lat": 25.062799453735,
            "lng": 121.50299835205,
            "service": "提款服務,悠遊卡加值,咖啡機,相片沖洗機,Life-ET(購票)服務,一卡通",
            "_id": "1228"
        },
        {
            "name": "北縣天龍店",
            "address": "新北市三重區241龍門路176號",
            "phone": "02-29763480",
            "lat": 25.073299407959,
            "lng": 121.49900054932,
            "service": "提款服務,悠遊卡加值,咖啡機,Life-ET(購票)服務,一卡通",
            "_id": "590"
        },
        {
            "name": "三重龍濱店",
            "address": "新北市三重區241龍濱路21號及23號",
            "phone": "02-89783696",
            "lat": 25.067899703979,
            "lng": 121.50299835205,
            "service": "提款服務,悠遊卡加值,咖啡機,相片沖洗機,Life-ET(購票)服務",
            "_id": "728"
        },
        {
            "name": "三重美集店",
            "address": "新北市三重區241環河南路221巷14號及16號1樓全部",
            "phone": "02-89782442",
            "lat": 25.052299499512,
            "lng": 121.49199676514,
            "service": "提款服務,悠遊卡加值,咖啡機,相片沖洗機,Life-ET(購票)服務,一卡通",
            "_id": "769"
        },
        {
            "name": "北縣三勇店",
            "address": "新北市三峽區237大勇路2之1號",
            "phone": "02-26731416",
            "lat": 24.938800811768,
            "lng": 121.36699676514,
            "service": "提款服務,悠遊卡加值,Life-ET(購票)服務,一卡通",
            "_id": "378"
        },
        {
            "name": "北縣三峽店",
            "address": "新北市三峽區237中正路一段75-1號",
            "phone": "02-26711069",
            "lat": 24.929500579834,
            "lng": 121.375,
            "service": "提款服務,悠遊卡加值,咖啡機,相片沖洗機,Life-ET(購票)服務,一卡通",
            "_id": "1115"
        },
        {
            "name": "北縣三埔店",
            "address": "新北市三峽區237中正路二段331之1號",
            "phone": "02-86715951",
            "lat": 24.909799575806,
            "lng": 121.36599731445,
            "service": "提款服務,悠遊卡加值,咖啡機,Life-ET(購票)服務,一卡通",
            "_id": "199"
        },
        {
            "name": "三峽正圓店",
            "address": "新北市三峽區237中園街237號一樓全部",
            "phone": "02-89783248",
            "lat": 24.919300079346,
            "lng": 121.36699676514,
            "service": "悠遊卡加值,Life-ET(購票)服務,一卡通",
            "_id": "868"
        },
        {
            "name": "北縣三豐店",
            "address": "新北市三峽區237文化路63號及65巷2號",
            "phone": "02-86713774",
            "lat": 24.936100006104,
            "lng": 121.37200164795,
            "service": "提款服務,悠遊卡加值,咖啡機,相片沖洗機,霜淇淋機,Life-ET(購票)服務",
            "_id": "1077"
        },
        {
            "name": "北縣頂埔店",
            "address": "新北市土城區236中央路4段56號",
            "phone": "02-22674788",
            "lat": 24.960500717163,
            "lng": 121.41999816895,
            "service": "提款服務,悠遊卡加值,咖啡機,Life-ET(購票)服務,一卡通",
            "_id": "1230"
        },
        {
            "name": "土城城央店",
            "address": "新北市土城區236中央路一段263號1樓全部",
            "phone": "02-89781254",
            "lat": 24.985300064087,
            "lng": 121.44499969482,
            "service": "悠遊卡加值,Life-ET(購票)服務",
            "_id": "922"
        },
        {
            "name": "北縣城正店",
            "address": "新北市土城區236中正路8號",
            "phone": "02-22701180",
            "lat": 24.974899291992,
            "lng": 121.44300079346,
            "service": "提款服務,悠遊卡加值,咖啡機,相片沖洗機,Life-ET(購票)服務,一卡通",
            "_id": "74"
        },
        {
            "name": "北縣國美店",
            "address": "新北市土城區236延吉街300號及302號",
            "phone": "02-22640428",
            "lat": 24.984199523926,
            "lng": 121.46399688721,
            "service": "提款服務,悠遊卡加值,咖啡機,相片沖洗機,Life-ET(購票)服務,一卡通",
            "_id": "459"
        },
        {
            "name": "北縣城吉店",
            "address": "新北市土城區236延吉街96號",
            "phone": "02-82629459",
            "lat": 24.986400604248,
            "lng": 121.4700012207,
            "service": "提款服務,悠遊卡加值,Life-ET(購票)服務,一卡通",
            "_id": "1159"
        },
        {
            "name": "土城城隆店",
            "address": "新北市土城區236延和路66號及68號",
            "phone": "02-22648001",
            "lat": 24.989099502563,
            "lng": 121.46600341797,
            "service": "提款服務,悠遊卡加值,咖啡機,相片沖洗機,Life-ET(購票)服務,一卡通",
            "_id": "646"
        },
        {
            "name": "北縣青雲二店",
            "address": "新北市土城區236青仁路27及29號",
            "phone": "02-22641892",
            "lat": 24.978900909424,
            "lng": 121.46099853516,
            "service": "提款服務,悠遊卡加值,咖啡機,相片沖洗機,Life-ET(購票)服務,一卡通",
            "_id": "1005"
        },
        {
            "name": "北縣德霖店",
            "address": "新北市土城區236青雲路380巷1號",
            "phone": "02-82628148",
            "lat": 24.972900390625,
            "lng": 121.45700073242,
            "service": "悠遊卡加值,咖啡機,相片沖洗機,Life-ET(購票)服務,一卡通",
            "_id": "552"
        },
        {
            "name": "北縣青雲店",
            "address": "新北市土城區236青雲路585之2號",
            "phone": "02-22640192",
            "lat": 24.971399307251,
            "lng": 121.45999908447,
            "service": "提款服務,悠遊卡加值,咖啡機,相片沖洗機,Life-ET(購票)服務",
            "_id": "1003"
        },
        {
            "name": "北縣城士店",
            "address": "新北市土城區236裕民路240號及242號",
            "phone": "02-22643801",
            "lat": 24.983299255371,
            "lng": 121.45400238037,
            "service": "提款服務,悠遊卡加值,咖啡機,Life-ET(購票)服務,一卡通",
            "_id": "415"
        },
        {
            "name": "北縣城廣店",
            "address": "新北市土城區236廣明街50號",
            "phone": "02-89665118",
            "lat": 24.993299484253,
            "lng": 121.45500183105,
            "service": "提款服務,悠遊卡加值,Life-ET(購票)服務",
            "_id": "185"
        },
        {
            "name": "土城學成店",
            "address": "新北市土城區236學成路80號及82號",
            "phone": "02-89783409",
            "lat": 24.988800048828,
            "lng": 121.45099639893,
            "service": "提款服務,悠遊卡加值,咖啡機,相片沖洗機,Life-ET(購票)服務,一卡通",
            "_id": "702"
        },
        {
            "name": "北縣城府店",
            "address": "新北市土城區236學府路一段139及141號",
            "phone": "02-82627640",
            "lat": 24.986200332642,
            "lng": 121.45400238037,
            "service": "提款服務,悠遊卡加值,咖啡機,相片沖洗機,Life-ET(購票)服務,一卡通",
            "_id": "558"
        },
        {
            "name": "北縣和大店",
            "address": "新北市中和區235大智街55巷30弄58-1號",
            "phone": "02-89431406",
            "lat": 24.99340057373,
            "lng": 121.52200317383,
            "service": "提款服務,悠遊卡加值,咖啡機,相片沖洗機,Life-ET(購票)服務,一卡通",
            "_id": "236"
        },
        {
            "name": "北縣橋安店",
            "address": "新北市中和區235中山路2段352號",
            "phone": "02-22445156",
            "lat": 25.002700805664,
            "lng": 121.49299621582,
            "service": "提款服務,悠遊卡加值,咖啡機,相片沖洗機,Life-ET(購票)服務,一卡通",
            "_id": "983"
        },
        {
            "name": "北縣嘉和店",
            "address": "新北市中和區235中和路414號",
            "phone": "02-29273652",
            "lat": 25.003099441528,
            "lng": 121.5120010376,
            "service": "提款服務,悠遊卡加值,咖啡機,Life-ET(購票)服務,一卡通",
            "_id": "982"
        },
        {
            "name": "北縣水源店",
            "address": "新北市中和區235水源路73號",
            "phone": "02-22480773",
            "lat": 25.00359916687,
            "lng": 121.5059967041,
            "service": "提款服務,悠遊卡加值,咖啡機,相片沖洗機,Life-ET(購票)服務,一卡通",
            "_id": "979"
        },
        {
            "name": "北縣飛和店",
            "address": "新北市中和區235永和路343號",
            "phone": "02-22213528",
            "lat": 25.011800765991,
            "lng": 121.48400115967,
            "service": "提款服務,悠遊卡加值,咖啡機,相片沖洗機,Life-ET(購票)服務,一卡通",
            "_id": "444"
        },
        {
            "name": "中和力德店",
            "address": "新北市中和區235立德街26巷1號及28號",
            "phone": "02-89783694",
            "lat": 25.006799697876,
            "lng": 121.48999786377,
            "service": "提款服務,悠遊卡加值,咖啡機,相片沖洗機,Life-ET(購票)服務,一卡通",
            "_id": "714"
        },
        {
            "name": "北縣自治店",
            "address": "新北市中和區235自治街38號及40號",
            "phone": "02-22227465",
            "lat": 25.003200531006,
            "lng": 121.47499847412,
            "service": "提款服務,悠遊卡加值,咖啡機,相片沖洗機,Life-ET(購票)服務",
            "_id": "337"
        },
        {
            "name": "北縣興南店",
            "address": "新北市中和區235信義街50號",
            "phone": "02-29437029",
            "lat": 24.988700866699,
            "lng": 121.51100158691,
            "service": "提款服務,悠遊卡加值,Life-ET(購票)服務,一卡通",
            "_id": "62"
        },
        {
            "name": "北縣遠東店",
            "address": "新北市中和區235建八路116號",
            "phone": "02-32349742",
            "lat": 24.998399734497,
            "lng": 121.4879989624,
            "service": "提款服務,悠遊卡加值,咖啡機,Life-ET(購票)服務,一卡通",
            "_id": "987"
        },
        {
            "name": "新台北燈會店",
            "address": "新北市中和區235員山路502-7號",
            "phone": "",
            "lat": 25.007871627808,
            "lng": 121.47972869873,
            "service": "",
            "_id": "140"
        },
        {
            "name": "北縣員山店",
            "address": "新北市中和區235員山路502-7號",
            "phone": "02-22216218",
            "lat": 25.00779914856,
            "lng": 121.48000335693,
            "service": "提款服務,悠遊卡加值,咖啡機,相片沖洗機,Life-ET(購票)服務",
            "_id": "21"
        },
        {
            "name": "北縣員山二店",
            "address": "新北市中和區235員山路581巷2號",
            "phone": "02-22252895",
            "lat": 25.00950050354,
            "lng": 121.47799682617,
            "service": "悠遊卡加值,咖啡機,相片沖洗機,霜淇淋機,Life-ET(購票)服務,一卡通",
            "_id": "65"
        },
        {
            "name": "中和和玉店",
            "address": "新北市中和區235員山路86號及88號",
            "phone": "02-22219645",
            "lat": 24.994199752808,
            "lng": 121.48100280762,
            "service": "提款服務,悠遊卡加值,咖啡機,相片沖洗機,Life-ET(購票)服務,一卡通",
            "_id": "641"
        },
        {
            "name": "北縣和泰店",
            "address": "新北市中和區235泰和街10號",
            "phone": "02-22456950",
            "lat": 25.000999450684,
            "lng": 121.5,
            "service": "提款服務,悠遊卡加值,咖啡機,Life-ET(購票)服務",
            "_id": "83"
        },
        {
            "name": "北縣福美店",
            "address": "新北市中和區235莊敬路29號",
            "phone": "02-22481053",
            "lat": 25.004699707031,
            "lng": 121.5,
            "service": "提款服務,悠遊卡加值,咖啡機,Life-ET(購票)服務,一卡通",
            "_id": "974"
        },
        {
            "name": "北縣連城店",
            "address": "新北市中和區235連城路47巷1號",
            "phone": "02-22406435",
            "lat": 25.001800537109,
            "lng": 121.49800109863,
            "service": "提款服務,悠遊卡加值,咖啡機,Life-ET(購票)服務,一卡通",
            "_id": "971"
        },
        {
            "name": "北縣平安店",
            "address": "新北市中和區235景安路152號",
            "phone": "02-22435055",
            "lat": 24.993099212646,
            "lng": 121.50499725342,
            "service": "提款服務,悠遊卡加值,咖啡機,Life-ET(購票)服務,一卡通",
            "_id": "985"
        },
        {
            "name": "中和和竹店",
            "address": "新北市中和區235華新街143巷12號",
            "phone": "02-29438361",
            "lat": 24.980400085449,
            "lng": 121.5059967041,
            "service": "悠遊卡加值,相片沖洗機,一卡通",
            "_id": "618"
        },
        {
            "name": "北縣和圓店",
            "address": "新北市中和區235圓通路2.4.6.號",
            "phone": "02-82459022",
            "lat": 24.998100280762,
            "lng": 121.50199890137,
            "service": "提款服務,悠遊卡加值,咖啡機,Life-ET(購票)服務,一卡通",
            "_id": "151"
        },
        {
            "name": "中和連勝店",
            "address": "新北市中和區235新生街225號及227號",
            "phone": "02-89781594",
            "lat": 24.999200820923,
            "lng": 121.48400115967,
            "service": "提款服務,悠遊卡加值,咖啡機,Life-ET(購票)服務,一卡通",
            "_id": "723"
        },
        {
            "name": "北縣橋和二店",
            "address": "新北市中和區235橋和路99及101號",
            "phone": "02-22216266",
            "lat": 25.005599975586,
            "lng": 121.49099731445,
            "service": "提款服務,悠遊卡加值,咖啡機,Life-ET(購票)服務,一卡通",
            "_id": "977"
        },
        {
            "name": "北縣南勢店",
            "address": "新北市中和區235興南路二段118號",
            "phone": "02-29421078",
            "lat": 24.98390007019,
            "lng": 121.50399780273,
            "service": "提款服務,悠遊卡加值,咖啡機,相片沖洗機,Life-ET(購票)服務",
            "_id": "975"
        },
        {
            "name": "北縣五興店",
            "address": "新北市五股區248中興路二段13號",
            "phone": "02-89850875",
            "lat": 25.074300765991,
            "lng": 121.46299743652,
            "service": "提款服務,悠遊卡加值,咖啡機,相片沖洗機,Life-ET(購票)服務,一卡通",
            "_id": "203"
        },
        {
            "name": "北縣五春店",
            "address": "新北市五股區248五工五路18號",
            "phone": "02-22997463",
            "lat": 25.064100265503,
            "lng": 121.45300292969,
            "service": "提款服務,悠遊卡加值,咖啡機,相片沖洗機,Life-ET(購票)服務,一卡通",
            "_id": "1085"
        },
        {
            "name": "北縣五工店",
            "address": "新北市五股區248五工六路28號",
            "phone": "02-22992945",
            "lat": 25.063800811768,
            "lng": 121.44799804688,
            "service": "提款服務,悠遊卡加值,咖啡機,相片沖洗機,Life-ET(購票)服務,一卡通",
            "_id": "132"
        },
        {
            "name": "五股福鑫店",
            "address": "新北市五股區248五福路8、10號一樓全部",
            "phone": "02-22952456",
            "lat": 25.088499069214,
            "lng": 121.43399810791,
            "service": "悠遊卡加值,咖啡機,相片沖洗機,Life-ET(購票)服務,一卡通",
            "_id": "647"
        },
        {
            "name": "北縣五股店",
            "address": "新北市五股區248五權路42之1號",
            "phone": "02-22984070",
            "lat": 25.068399429321,
            "lng": 121.452003479,
            "service": "提款服務,悠遊卡加值,咖啡機,Life-ET(購票)服務",
            "_id": "81"
        },
        {
            "name": "北縣五維店",
            "address": "新北市五股區248四維路153號",
            "phone": "02-29849703",
            "lat": 25.074499130249,
            "lng": 121.46800231934,
            "service": "提款服務,悠遊卡加值,Life-ET(購票)服務,一卡通",
            "_id": "303"
        },
        {
            "name": "北縣德泰店",
            "address": "新北市五股區248成泰路1段10號",
            "phone": "02-29003575",
            "lat": 25.067800521851,
            "lng": 121.43499755859,
            "service": "提款服務,悠遊卡加值,咖啡機,相片沖洗機,Life-ET(購票)服務,一卡通",
            "_id": "1235"
        },
        {
            "name": "五股憲兵店",
            "address": "新北市五股區248成泰路一段175號(憲兵學校教學區)",
            "phone": "02-22951899",
            "lat": 25.075300216675,
            "lng": 121.43399810791,
            "service": "悠遊卡加值,咖啡機,Life-ET(購票)服務",
            "_id": "627"
        },
        {
            "name": "北縣五正店",
            "address": "新北市五股區248成泰路二段91巷8號",
            "phone": "02-82926775",
            "lat": 25.084400177002,
            "lng": 121.43800354004,
            "service": "提款服務,悠遊卡加值,Life-ET(購票)服務,一卡通",
            "_id": "1116"
        },
        {
            "name": "五股郁芳店",
            "address": "新北市五股區248成泰路三段175、175-1號",
            "phone": "02-89782104",
            "lat": 25.092500686646,
            "lng": 121.44499969482,
            "service": "悠遊卡加值,咖啡機,Life-ET(購票)服務,一卡通",
            "_id": "669"
        },
        {
            "name": "北縣西雲店",
            "address": "新北市五股區248西雲路134、134之1號一樓",
            "phone": "02-82921412",
            "lat": 25.093999862671,
            "lng": 121.44599914551,
            "service": "提款服務,悠遊卡加值,咖啡機,Life-ET(購票)服務,一卡通",
            "_id": "555"
        },
        {
            "name": "北縣五泰店",
            "address": "新北市五股區248西雲路1號",
            "phone": "02-82950770",
            "lat": 25.08989906311,
            "lng": 121.44200134277,
            "service": "提款服務,悠遊卡加值,咖啡機,Life-ET(購票)服務,一卡通",
            "_id": "1075"
        },
        {
            "name": "北縣永利店",
            "address": "新北市永和區234中正路560號",
            "phone": "02-86604574",
            "lat": 25.005899429321,
            "lng": 121.51699829102,
            "service": "提款服務,悠遊卡加值,咖啡機,Life-ET(購票)服務,一卡通",
            "_id": "32"
        },
        {
            "name": "北縣永富店",
            "address": "新北市永和區234永平路164號",
            "phone": "02-29294312",
            "lat": 25.009000778198,
            "lng": 121.51100158691,
            "service": "提款服務,悠遊卡加值,咖啡機,Life-ET(購票)服務,一卡通",
            "_id": "78"
        },
        {
            "name": "北縣永任店",
            "address": "新北市永和區234永和路二段217號",
            "phone": "02-29246370",
            "lat": 25.014099121094,
            "lng": 121.51499938965,
            "service": "提款服務,悠遊卡加值,咖啡機,Life-ET(購票)服務,一卡通",
            "_id": "245"
        },
        {
            "name": "永和永寧店",
            "address": "新北市永和區234永貞路158號及160號",
            "phone": "02-89783351",
            "lat": 25.004400253296,
            "lng": 121.5179977417,
            "service": "提款服務,悠遊卡加值,咖啡機,相片沖洗機,Life-ET(購票)服務,一卡通",
            "_id": "683"
        },
        {
            "name": "永和永霖店",
            "address": "新北市永和區234竹林路65號",
            "phone": "02-89782237",
            "lat": 25.013700485229,
            "lng": 121.5179977417,
            "service": "提款服務,悠遊卡加值,咖啡機,相片沖洗機,Life-ET(購票)服務,一卡通",
            "_id": "722"
        },
        {
            "name": "永和興工店",
            "address": "新北市永和區234秀朗路1段201號",
            "phone": "02-29206112",
            "lat": 25.003799438477,
            "lng": 121.51899719238,
            "service": "悠遊卡加值,相片沖洗機,Life-ET(購票)服務,一卡通",
            "_id": "662"
        },
        {
            "name": "北縣永遠店",
            "address": "新北市永和區234福和路7巷11弄16號",
            "phone": "02-29252655",
            "lat": 25.007699966431,
            "lng": 121.52600097656,
            "service": "提款服務,悠遊卡加值,咖啡機,Life-ET(購票)服務,一卡通",
            "_id": "1184"
        },
        {
            "name": "北縣碇晨店",
            "address": "新北市石碇區223碇坪路一段130號1樓",
            "phone": "02-26634141",
            "lat": 24.991399765015,
            "lng": 121.65899658203,
            "service": "悠遊卡加值,咖啡機,相片沖洗機,Life-ET(購票)服務,一卡通",
            "_id": "1057"
        },
        {
            "name": "石碇雪山店",
            "address": "新北市石碇區223豐林里楓子林62號",
            "phone": "02-26632492",
            "lat": 25.008899688721,
            "lng": 121.64499664307,
            "service": "悠遊卡加值,咖啡機,Life-ET(購票)服務,一卡通",
            "_id": "634"
        },
        {
            "name": "石碇雪山二店",
            "address": "新北市石碇區223豐林里楓子林62號石碇服務區",
            "phone": "",
            "lat": 25,
            "lng": 121.65000152588,
            "service": "",
            "_id": "243"
        },
        {
            "name": "北縣汐德店",
            "address": "新北市汐止區221中興路156號",
            "phone": "02-86934027",
            "lat": 25.06489944458,
            "lng": 121.63200378418,
            "service": "提款服務,悠遊卡加值,咖啡機,相片沖洗機,Life-ET(購票)服務",
            "_id": "522"
        },
        {
            "name": "北縣汐忠店",
            "address": "新北市汐止區221忠三街19號",
            "phone": "02-26903671",
            "lat": 25.078699111938,
            "lng": 121.62599945068,
            "service": "提款服務,悠遊卡加值,咖啡機,相片沖洗機,Life-ET(購票)服務",
            "_id": "237"
        },
        {
            "name": "北縣五堵店",
            "address": "新北市汐止區221保一街41號",
            "phone": "02-86481336",
            "lat": 25.078399658203,
            "lng": 121.67600250244,
            "service": "提款服務,悠遊卡加值,咖啡機,霜淇淋機,Life-ET(購票)服務,一卡通",
            "_id": "1067"
        },
        {
            "name": "北縣北山店",
            "address": "新北市汐止區221南陽街261號",
            "phone": "02-26942276",
            "lat": 25.056499481201,
            "lng": 121.62799835205,
            "service": "提款服務,悠遊卡加值,咖啡機,Life-ET(購票)服務",
            "_id": "68"
        },
        {
            "name": "北縣連興店",
            "address": "新北市汐止區221連興街26號",
            "phone": "02-26428514",
            "lat": 25.063499450684,
            "lng": 121.6549987793,
            "service": "提款服務,悠遊卡加值,咖啡機,Life-ET(購票)服務,一卡通",
            "_id": "945"
        },
        {
            "name": "北縣遠科店",
            "address": "新北市汐止區221新台五路一段75號B1",
            "phone": "02-89781623",
            "lat": 25.061500549316,
            "lng": 121.64600372314,
            "service": "提款服務,悠遊卡加值,咖啡機,Life-ET(購票)服務,一卡通",
            "_id": "578"
        },
        {
            "name": "北縣汐科店",
            "address": "新北市汐止區221新台五路一段94號一樓(東方科學園區)",
            "phone": "02-26969845",
            "lat": 25.060899734497,
            "lng": 121.6490020752,
            "service": "提款服務,悠遊卡加值,咖啡機,相片沖洗機,Life-ET(購票)服務,一卡通",
            "_id": "562"
        },
        {
            "name": "北縣汐福店",
            "address": "新北市汐止區221福德一路270號",
            "phone": "02-86933851",
            "lat": 25.063899993896,
            "lng": 121.63200378418,
            "service": "提款服務,悠遊卡加值,咖啡機,Life-ET(購票)服務,一卡通",
            "_id": "184"
        },
        {
            "name": "北縣宏福店",
            "address": "新北市汐止區221福德一路6,10號",
            "phone": "02-26949238",
            "lat": 25.069700241089,
            "lng": 121.63899993896,
            "service": "提款服務,悠遊卡加值,Life-ET(購票)服務,一卡通",
            "_id": "946"
        },
        {
            "name": "林口麗園店",
            "address": "新北市林口區244文化一路一段52號1樓部份",
            "phone": "02-89786749",
            "lat": 25.069499969482,
            "lng": 121.37200164795,
            "service": "悠遊卡加值,咖啡機,Life-ET(購票)服務,一卡通",
            "_id": "825"
        },
        {
            "name": "林口瀧澄店",
            "address": "新北市林口區244文化三路一段227號一樓部份",
            "phone": "02-89783921",
            "lat": 25.070999145508,
            "lng": 121.3629989624,
            "service": "提款服務,悠遊卡加值,咖啡機,相片沖洗機,Life-ET(購票)服務,一卡通",
            "_id": "716"
        },
        {
            "name": "林口香澄店",
            "address": "新北市林口區244文化三路一段613、615號1樓全部",
            "phone": "02-89783364",
            "lat": 25.077199935913,
            "lng": 121.37100219727,
            "service": "悠遊卡加值,咖啡機,相片沖洗機,Life-ET(購票)服務,一卡通",
            "_id": "749"
        },
        {
            "name": "林口建林店",
            "address": "新北市林口區244文化北路一段258號一樓",
            "phone": "02-89781854",
            "lat": 25.071699142456,
            "lng": 121.35900115967,
            "service": "",
            "_id": "924"
        },
        {
            "name": "北縣醒吾店",
            "address": "新北市林口區244粉寮路一段101號",
            "phone": "02-26024955",
            "lat": 25.081300735474,
            "lng": 121.39499664307,
            "service": "悠遊卡加值,Life-ET(購票)服務,一卡通",
            "_id": "307"
        },
        {
            "name": "林口鑫醒中店",
            "address": "新北市林口區244粉寮路一段７５巷８０號(醒吾中學販賣部)",
            "phone": "02-89783491",
            "lat": 25.079500198364,
            "lng": 121.39600372314,
            "service": "悠遊卡加值,相片沖洗機,Life-ET(購票)服務,一卡通",
            "_id": "913"
        },
        {
            "name": "林口清梅店",
            "address": "新北市林口區244湖北里湖子48號之1壹樓部份",
            "phone": "02-26020741",
            "lat": 25.090999603271,
            "lng": 121.38500213623,
            "service": "提款服務,悠遊卡加值,咖啡機,相片沖洗機,Life-ET(購票)服務,一卡通",
            "_id": "613"
        },
        {
            "name": "板橋文聖店",
            "address": "新北市板橋區220大同街29號一樓全部及31號一樓全部",
            "phone": "02-89784026",
            "lat": 25.027200698853,
            "lng": 121.47799682617,
            "service": "提款服務,悠遊卡加值,咖啡機,相片沖洗機,Life-ET(購票)服務,一卡通",
            "_id": "801"
        },
        {
            "name": "北縣板億店",
            "address": "新北市板橋區220大觀路3段160巷31弄1號",
            "phone": "02-26870839",
            "lat": 24.993799209595,
            "lng": 121.43000030518,
            "service": "提款服務,悠遊卡加值,咖啡機,Life-ET(購票)服務",
            "_id": "93"
        },
        {
            "name": "北縣大興店",
            "address": "新北市板橋區220大觀路二段142之2號",
            "phone": "02-29603265",
            "lat": 24.999099731445,
            "lng": 121.44300079346,
            "service": "提款服務,悠遊卡加值,咖啡機,Life-ET(購票)服務",
            "_id": "1227"
        },
        {
            "name": "北縣板震店",
            "address": "新北市板橋區220中山路1段50巷5號",
            "phone": "02-29524775",
            "lat": 25.008899688721,
            "lng": 121.46099853516,
            "service": "提款服務,悠遊卡加值,咖啡機,Life-ET(購票)服務",
            "_id": "1081"
        },
        {
            "name": "北縣板好店",
            "address": "新北市板橋區220中正路341巷37號",
            "phone": "02-89682040",
            "lat": 25.019800186157,
            "lng": 121.45400238037,
            "service": "提款服務,悠遊卡加值,咖啡機,相片沖洗機,Life-ET(購票)服務",
            "_id": "283"
        },
        {
            "name": "北縣板玉店",
            "address": "新北市板橋區220互助街48號一樓全部及50號一樓及地下室全部",
            "phone": "02-22584769",
            "lat": 25.027000427246,
            "lng": 121.46199798584,
            "service": "提款服務,悠遊卡加值,咖啡機,Life-ET(購票)服務,一卡通",
            "_id": "595"
        },
        {
            "name": "板橋民仁店",
            "address": "新北市板橋區220仁化街186號一樓全部",
            "phone": "02-89783335",
            "lat": 25.034000396729,
            "lng": 121.47899627686,
            "service": "提款服務,悠遊卡加值,咖啡機,Life-ET(購票)服務,一卡通",
            "_id": "677"
        },
        {
            "name": "北縣板館店",
            "address": "新北市板橋區220公館街110號一樓全部",
            "phone": "02-29609753",
            "lat": 25.016899108887,
            "lng": 121.46099853516,
            "service": "提款服務,悠遊卡加值,Life-ET(購票)服務,一卡通",
            "_id": "408"
        },
        {
            "name": "北縣板駿店",
            "address": "新北市板橋區220文化路一段313號(和平樓一樓D16教室)",
            "phone": "02-82585853",
            "lat": 25.021900177002,
            "lng": 121.46299743652,
            "service": "悠遊卡加值,咖啡機,Life-ET(購票)服務,一卡通",
            "_id": "129"
        },
        {
            "name": "北縣江翠店",
            "address": "新北市板橋區220文化路二段408號",
            "phone": "02-22539385",
            "lat": 25.031400680542,
            "lng": 121.47399902344,
            "service": "提款服務,悠遊卡加值,咖啡機,Life-ET(購票)服務,一卡通",
            "_id": "26"
        },
        {
            "name": "北縣寶翠店",
            "address": "新北市板橋區220文化路二段439之1號",
            "phone": "02-22562057",
            "lat": 25.033199310303,
            "lng": 121.47499847412,
            "service": "提款服務,悠遊卡加值,咖啡機,相片沖洗機,Life-ET(購票)服務,一卡通",
            "_id": "1236"
        },
        {
            "name": "北縣板莒店",
            "address": "新北市板橋區220文化路二段78號",
            "phone": "02-22537956",
            "lat": 25.025199890137,
            "lng": 121.46900177002,
            "service": "提款服務,悠遊卡加值,咖啡機,相片沖洗機,Life-ET(購票)服務,一卡通",
            "_id": "1031"
        },
        {
            "name": "北縣豫章店",
            "address": "新北市板橋區220四川路一段391號1F",
            "phone": "02-29554332",
            "lat": 24.997100830078,
            "lng": 121.45899963379,
            "service": "悠遊卡加值,相片沖洗機,Life-ET(購票)服務,一卡通",
            "_id": "543"
        },
        {
            "name": "板橋玉川店",
            "address": "新北市板橋區220四川路一段483一樓、485號一、二、三樓",
            "phone": "02-89783501",
            "lat": 24.997299194336,
            "lng": 121.45700073242,
            "service": "提款服務,悠遊卡加值,咖啡機,相片沖洗機,Life-ET(購票)服務,一卡通",
            "_id": "690"
        },
        {
            "name": "板橋民治店",
            "address": "新北市板橋區220民治街57巷2號、59號",
            "phone": "02-89782441",
            "lat": 25.03330039978,
            "lng": 121.48000335693,
            "service": "提款服務,悠遊卡加值,咖啡機,Life-ET(購票)服務,一卡通",
            "_id": "680"
        },
        {
            "name": "北縣板豐店",
            "address": "新北市板橋區220永豐街51-1.51-2號一樓全部",
            "phone": "02-29545105",
            "lat": 25.017999649048,
            "lng": 121.47399902344,
            "service": "提款服務,悠遊卡加值,咖啡機,相片沖洗機,Life-ET(購票)服務,一卡通",
            "_id": "436"
        },
        {
            "name": "北縣板寧店",
            "address": "新北市板橋區220江寧路3段53號",
            "phone": "02-22500509",
            "lat": 25.03210067749,
            "lng": 121.47200012207,
            "service": "提款服務,悠遊卡加值,咖啡機,Life-ET(購票)服務,一卡通",
            "_id": "1078"
        },
        {
            "name": "北縣僑福店",
            "address": "新北市板橋區220幸褔路70巷1號",
            "phone": "02-22590856",
            "lat": 25.020099639893,
            "lng": 121.46099853516,
            "service": "提款服務,悠遊卡加值,Life-ET(購票)服務,一卡通",
            "_id": "996"
        },
        {
            "name": "北縣府中店",
            "address": "新北市板橋區220府中路24號",
            "phone": "02-22722034",
            "lat": 25.009799957275,
            "lng": 121.45999908447,
            "service": "提款服務,悠遊卡加值,咖啡機,相片沖洗機,Life-ET(購票)服務,一卡通",
            "_id": "999"
        },
        {
            "name": "北縣板松店",
            "address": "新北市板橋區220松江街74號",
            "phone": "02-22504171",
            "lat": 25.027900695801,
            "lng": 121.46900177002,
            "service": "提款服務,悠遊卡加值,咖啡機,相片沖洗機,Life-ET(購票)服務,一卡通",
            "_id": "1030"
        },
        {
            "name": "北縣漢江店",
            "address": "新北市板橋區220長江路2段2號一樓",
            "phone": "02-22549655",
            "lat": 25.031099319458,
            "lng": 121.46399688721,
            "service": "提款服務,悠遊卡加值,咖啡機,Life-ET(購票)服務,一卡通",
            "_id": "577"
        },
        {
            "name": "北縣板雅店",
            "address": "新北市板橋區220南雅東路100巷3號一樓",
            "phone": "02-29693681",
            "lat": 25.007900238037,
            "lng": 121.45400238037,
            "service": "提款服務,悠遊卡加值,咖啡機,相片沖洗機,Life-ET(購票)服務,一卡通",
            "_id": "267"
        },
        {
            "name": "板橋華雅店",
            "address": "新北市板橋區220南雅南路二段5號、7號",
            "phone": "02-89783147",
            "lat": 25.002899169922,
            "lng": 121.45400238037,
            "service": "提款服務,悠遊卡加值,咖啡機,相片沖洗機,Life-ET(購票)服務",
            "_id": "817"
        },
        {
            "name": "北縣成都店",
            "address": "新北市板橋區220重慶路245巷61號",
            "phone": "02-29511286",
            "lat": 25.001100540161,
            "lng": 121.46499633789,
            "service": "提款服務,悠遊卡加值,咖啡機,相片沖洗機,Life-ET(購票)服務,一卡通",
            "_id": "1015"
        },
        {
            "name": "北縣板美店",
            "address": "新北市板橋區220重慶路290巷9號",
            "phone": "02-29589089",
            "lat": 24.998600006104,
            "lng": 121.46099853516,
            "service": "提款服務,悠遊卡加值,咖啡機,Life-ET(購票)服務,一卡通",
            "_id": "271"
        },
        {
            "name": "北縣橋泰店",
            "address": "新北市板橋區220國泰街35號",
            "phone": "02-89520973",
            "lat": 25.006700515747,
            "lng": 121.46900177002,
            "service": "提款服務,悠遊卡加值,咖啡機,Life-ET(購票)服務,一卡通",
            "_id": "1234"
        },
        {
            "name": "北縣板鑽店",
            "address": "新北市板橋區220國慶路180號",
            "phone": "02-29514481",
            "lat": 24.996200561523,
            "lng": 121.46299743652,
            "service": "提款服務,悠遊卡加值,咖啡機,Life-ET(購票)服務,一卡通",
            "_id": "377"
        },
        {
            "name": "北縣板莊店",
            "address": "新北市板橋區220莊敬路248號",
            "phone": "02-22542301",
            "lat": 25.02140045166,
            "lng": 121.47399902344,
            "service": "提款服務,悠遊卡加值,咖啡機,Life-ET(購票)服務,一卡通",
            "_id": "57"
        },
        {
            "name": "北縣板成店",
            "address": "新北市板橋區220莊敬路77號",
            "phone": "02-22541240",
            "lat": 25.026699066162,
            "lng": 121.47299957275,
            "service": "提款服務,悠遊卡加值,咖啡機,Life-ET(購票)服務,一卡通",
            "_id": "369"
        },
        {
            "name": "北縣板華店",
            "address": "新北市板橋區220華興街90號",
            "phone": "02-29537695",
            "lat": 25.005300521851,
            "lng": 121.45700073242,
            "service": "提款服務,悠遊卡加值,咖啡機,Life-ET(購票)服務,一卡通",
            "_id": "123"
        },
        {
            "name": "板橋貴興店",
            "address": "新北市板橋區220貴興路80號一樓部份及82號一樓全部",
            "phone": "02-89783920",
            "lat": 25.002700805664,
            "lng": 121.45600128174,
            "service": "提款服務,悠遊卡加值,咖啡機,相片沖洗機,Life-ET(購票)服務,一卡通",
            "_id": "708"
        },
        {
            "name": "北縣板明店",
            "address": "新北市板橋區220陽明街52號+自由路1號",
            "phone": "02-22553748",
            "lat": 25.022399902344,
            "lng": 121.46499633789,
            "service": "提款服務,悠遊卡加值,咖啡機,相片沖洗機,Life-ET(購票)服務,一卡通",
            "_id": "1214"
        },
        {
            "name": "板橋海龍店",
            "address": "新北市板橋區220新海路393、395號一樓全部",
            "phone": "02-22583642",
            "lat": 25.026399612427,
            "lng": 121.45899963379,
            "service": "提款服務,悠遊卡加值,咖啡機,Life-ET(購票)服務,一卡通",
            "_id": "670"
        },
        {
            "name": "板橋福康店",
            "address": "新北市板橋區220僑中一街124巷11弄1、3號一樓全部",
            "phone": "02-89785452",
            "lat": 25.012899398804,
            "lng": 121.44599914551,
            "service": "提款服務,悠遊卡加值,咖啡機,相片沖洗機,Life-ET(購票)服務",
            "_id": "739"
        },
        {
            "name": "北縣僑中三店",
            "address": "新北市板橋區220僑中一街125巷8弄2號",
            "phone": "02-29663657",
            "lat": 25.011100769043,
            "lng": 121.44499969482,
            "service": "提款服務,悠遊卡加值,Life-ET(購票)服務,一卡通",
            "_id": "1002"
        },
        {
            "name": "板橋僑興店",
            "address": "新北市板橋區220僑中二街104巷1、3號一樓部份",
            "phone": "02-89786792",
            "lat": 25.00779914856,
            "lng": 121.44599914551,
            "service": "提款服務,悠遊卡加值,咖啡機,相片沖洗機,Life-ET(購票)服務,一卡通",
            "_id": "816"
        },
        {
            "name": "北縣板龍店",
            "address": "新北市板橋區220龍興街73巷2、4號1樓",
            "phone": "02-22725923",
            "lat": 25.002199172974,
            "lng": 121.44400024414,
            "service": "提款服務,悠遊卡加值,咖啡機,Life-ET(購票)服務",
            "_id": "86"
        },
        {
            "name": "北縣雙翠店",
            "address": "新北市板橋區220雙十路2段45號",
            "phone": "02-22509041",
            "lat": 25.026100158691,
            "lng": 121.47699737549,
            "service": "提款服務,悠遊卡加值,Life-ET(購票)服務,一卡通",
            "_id": "1233"
        },
        {
            "name": "北縣昇陽二店",
            "address": "新北市板橋區220雙十路二段167號",
            "phone": "",
            "lat": 25.028364181519,
            "lng": 121.47415161133,
            "service": "",
            "_id": "201"
        },
        {
            "name": "北縣昇陽店",
            "address": "新北市板橋區220雙十路二段167號",
            "phone": "02-82583138",
            "lat": 25.028400421143,
            "lng": 121.47399902344,
            "service": "提款服務,悠遊卡加值,咖啡機,Life-ET(購票)服務",
            "_id": "47"
        },
        {
            "name": "北縣板雙店",
            "address": "新北市板橋區220雙十路三段12、14、16號",
            "phone": "02-22524845",
            "lat": 25.030300140381,
            "lng": 121.47200012207,
            "service": "提款服務,悠遊卡加值,咖啡機,相片沖洗機,Life-ET(購票)服務,一卡通",
            "_id": "1028"
        },
        {
            "name": "北縣板嘉店",
            "address": "新北市板橋區220雙十路三段29號",
            "phone": "02-22591727",
            "lat": 25.031499862671,
            "lng": 121.47100067139,
            "service": "提款服務,悠遊卡加值,Life-ET(購票)服務,一卡通",
            "_id": "1111"
        },
        {
            "name": "北縣金陽店",
            "address": "新北市金山區208中正路26號",
            "phone": "02-24081448",
            "lat": 25.222400665283,
            "lng": 121.63600158691,
            "service": "悠遊卡加值,Life-ET(購票)服務,一卡通",
            "_id": "1043"
        },
        {
            "name": "北縣泰富店",
            "address": "新北市泰山區243明志路二段324、326號一樓",
            "phone": "02-29014998",
            "lat": 25.045700073242,
            "lng": 121.42600250244,
            "service": "提款服務,悠遊卡加值,咖啡機,相片沖洗機,Life-ET(購票)服務,一卡通",
            "_id": "462"
        },
        {
            "name": "北縣黎明店",
            "address": "新北市泰山區243黎專路2-2號",
            "phone": "02-22966410",
            "lat": 25.066600799561,
            "lng": 121.41999816895,
            "service": "悠遊卡加值,Life-ET(購票)服務,一卡通",
            "_id": "1209"
        },
        {
            "name": "淡水滬站店",
            "address": "新北市淡水區251中正路1號(淡水站3-3號販賣店)",
            "phone": "02-89785031",
            "lat": 25.168300628662,
            "lng": 121.44499969482,
            "service": "悠遊卡加值,咖啡機,Life-ET(購票)服務,一卡通",
            "_id": "778"
        },
        {
            "name": "北縣金龍店",
            "address": "新北市淡水區251水源街２段１９４號一樓及地下一樓全部",
            "phone": "02-26293141",
            "lat": 25.175899505615,
            "lng": 121.45700073242,
            "service": "提款服務,悠遊卡加值,咖啡機,相片沖洗機,Life-ET(購票)服務",
            "_id": "942"
        },
        {
            "name": "北縣淡俊店",
            "address": "新北市淡水區251北新路137、139號1F",
            "phone": "02-26293380",
            "lat": 25.179000854492,
            "lng": 121.44899749756,
            "service": "提款服務,悠遊卡加值,咖啡機,相片沖洗機,Life-ET(購票)服務,一卡通",
            "_id": "1071"
        },
        {
            "name": "北縣淡鑫店",
            "address": "新北市淡水區251北新路165.167號",
            "phone": "02-26235718",
            "lat": 25.179399490356,
            "lng": 121.44999694824,
            "service": "提款服務,悠遊卡加值,咖啡機,Life-ET(購票)服務,一卡通",
            "_id": "231"
        },
        {
            "name": "淡水天元店",
            "address": "新北市淡水區251北新路二段148、150號1樓部份",
            "phone": "02-89783464",
            "lat": 25.18510055542,
            "lng": 121.4820022583,
            "service": "悠遊卡加值,咖啡機,Life-ET(購票)服務,一卡通",
            "_id": "766"
        },
        {
            "name": "北縣淡醫店",
            "address": "新北市淡水區251民權路47號",
            "phone": "02-88097192",
            "lat": 25.139499664307,
            "lng": 121.45999908447,
            "service": "提款服務,悠遊卡加值,相片沖洗機,Life-ET(購票)服務,一卡通",
            "_id": "435"
        },
        {
            "name": "北縣民族店",
            "address": "新北市淡水區251竹圍里民族路48號",
            "phone": "02-28080023",
            "lat": 25.136100769043,
            "lng": 121.46099853516,
            "service": "提款服務,悠遊卡加值,Life-ET(購票)服務",
            "_id": "949"
        },
        {
            "name": "淡水後洲店",
            "address": "新北市淡水區251後洲路一段50號、50之1號1樓",
            "phone": "02-89781754",
            "lat": 25.200399398804,
            "lng": 121.42900085449,
            "service": "",
            "_id": "931"
        },
        {
            "name": "淡水五虎崗店",
            "address": "新北市淡水區251英專路151號",
            "phone": "02-89783154",
            "lat": 25.17560005188,
            "lng": 121.45300292969,
            "service": "提款服務,悠遊卡加值,咖啡機,相片沖洗機,Life-ET(購票)服務",
            "_id": "876"
        },
        {
            "name": "淡水純德店",
            "address": "新北市淡水區251真理街26號(私立淡江中學體育館B1)",
            "phone": "02-89785425",
            "lat": 25.177400588989,
            "lng": 121.43699645996,
            "service": "悠遊卡加值,咖啡機,相片沖洗機,Life-ET(購票)服務",
            "_id": "806"
        },
        {
            "name": "北縣真理店",
            "address": "新北市淡水區251真理街32號",
            "phone": "02-26250507",
            "lat": 25.17679977417,
            "lng": 121.43399810791,
            "service": "悠遊卡加值,咖啡機,相片沖洗機,Life-ET(購票)服務,一卡通",
            "_id": "542"
        },
        {
            "name": "北縣淡金店",
            "address": "新北市淡水區251淡金路18號",
            "phone": "02-86262447",
            "lat": 25.159999847412,
            "lng": 121.45700073242,
            "service": "悠遊卡加值,咖啡機,相片沖洗機,Life-ET(購票)服務,一卡通",
            "_id": "1068"
        },
        {
            "name": "北縣淡虹店",
            "address": "新北市淡水區251淡金路5段20-22號",
            "phone": "02-28015362",
            "lat": 25.232500076294,
            "lng": 121.45400238037,
            "service": "提款服務,悠遊卡加值,Life-ET(購票)服務,一卡通",
            "_id": "1112"
        },
        {
            "name": "淡水新市店",
            "address": "新北市淡水區251新市一路一段104巷6號1樓",
            "phone": "02-89782334",
            "lat": 25.185600280762,
            "lng": 121.43099975586,
            "service": "悠遊卡加值,咖啡機,Life-ET(購票)服務,一卡通",
            "_id": "776"
        },
        {
            "name": "淡水莊園店",
            "address": "新北市淡水區251濱海路一段221號(金湯川溫泉汽旅區會館區一樓)",
            "phone": "02-89785491",
            "lat": 25.189300537109,
            "lng": 121.43800354004,
            "service": "悠遊卡加值,咖啡機,Life-ET(購票)服務,一卡通",
            "_id": "824"
        },
        {
            "name": "淡水帆船店",
            "address": "新北市淡水區251觀海路91號(藝術大街區W1F22)",
            "phone": "02-28057216",
            "lat": 25.181800842285,
            "lng": 121.41400146484,
            "service": "提款服務,悠遊卡加值,咖啡機,Life-ET(購票)服務,一卡通",
            "_id": "642"
        },
        {
            "name": "北縣深北店",
            "address": "新北市深坑區222北深路二段57\/59\/61號",
            "phone": "02-26625019",
            "lat": 25.003900527954,
            "lng": 121.6190032959,
            "service": "提款服務,悠遊卡加值,咖啡機,Life-ET(購票)服務,一卡通",
            "_id": "117"
        },
        {
            "name": "北縣建國店",
            "address": "新北市新店區231中正路282之10號",
            "phone": "02-29161918",
            "lat": 24.974300384521,
            "lng": 121.53800201416,
            "service": "提款服務,悠遊卡加值,咖啡機,相片沖洗機,Life-ET(購票)服務",
            "_id": "970"
        },
        {
            "name": "北縣耕醫店",
            "address": "新北市新店區231中正路362號",
            "phone": "02-22194312",
            "lat": 24.976900100708,
            "lng": 121.53500366211,
            "service": "悠遊卡加值,咖啡機,Life-ET(購票)服務,一卡通",
            "_id": "531"
        },
        {
            "name": "北縣莊敬店",
            "address": "新北市新店區231中正路525號",
            "phone": "02-82186803",
            "lat": 24.985399246216,
            "lng": 121.53299713135,
            "service": "提款服務,悠遊卡加值,咖啡機,Life-ET(購票)服務,一卡通",
            "_id": "37"
        },
        {
            "name": "北縣新元店",
            "address": "新北市新店區231中興路3段304號",
            "phone": "02-29154175",
            "lat": 24.985500335693,
            "lng": 121.54199981689,
            "service": "提款服務,悠遊卡加值,咖啡機,相片沖洗機,Life-ET(購票)服務,一卡通",
            "_id": "69"
        },
        {
            "name": "北縣耕莘店",
            "address": "新北市新店區231民族路112號",
            "phone": "02-22190745",
            "lat": 24.976900100708,
            "lng": 121.53700256348,
            "service": "悠遊卡加值,Life-ET(購票)服務,一卡通",
            "_id": "478"
        },
        {
            "name": "北縣新戰店",
            "address": "新北市新店區231安民街136號",
            "phone": "02-22121941",
            "lat": 24.969499588013,
            "lng": 121.51699829102,
            "service": "悠遊卡加值,咖啡機,Life-ET(購票)服務,一卡通",
            "_id": "385"
        },
        {
            "name": "新店天廈店",
            "address": "新北市新店區231安民街336號及安和路二段205巷6號",
            "phone": "02-89783349",
            "lat": 24.975099563599,
            "lng": 121.51699829102,
            "service": "提款服務,悠遊卡加值,咖啡機,相片沖洗機,Life-ET(購票)服務,一卡通",
            "_id": "687"
        },
        {
            "name": "北縣新和店",
            "address": "新北市新店區231安和路三段60之1號",
            "phone": "02-29478555",
            "lat": 24.982900619507,
            "lng": 121.5179977417,
            "service": "提款服務,悠遊卡加值,Life-ET(購票)服務,一卡通",
            "_id": "986"
        },
        {
            "name": "北縣雙城二店",
            "address": "新北市新店區231安康路三段277號",
            "phone": "",
            "lat": 24.951705932617,
            "lng": 121.48648834229,
            "service": "",
            "_id": "190"
        },
        {
            "name": "北縣雙城店",
            "address": "新北市新店區231安康路三段277號",
            "phone": "02-22143254",
            "lat": 24.951599121094,
            "lng": 121.48600006104,
            "service": "提款服務,悠遊卡加值,咖啡機,Life-ET(購票)服務,一卡通",
            "_id": "984"
        },
        {
            "name": "北縣建國二店",
            "address": "新北市新店區231建國路154號",
            "phone": "02-29114454",
            "lat": 24.979400634766,
            "lng": 121.53900146484,
            "service": "提款服務,悠遊卡加值,咖啡機,Life-ET(購票)服務,一卡通",
            "_id": "973"
        },
        {
            "name": "北縣新國店",
            "address": "新北市新店區231建國路43號及建安街1號",
            "phone": "02-89117715",
            "lat": 24.975200653076,
            "lng": 121.54000091553,
            "service": "提款服務,悠遊卡加值,咖啡機,相片沖洗機,Life-ET(購票)服務,一卡通",
            "_id": "425"
        },
        {
            "name": "新店名揚店",
            "address": "新北市新店區231新和街77號及79號",
            "phone": "02-89783770",
            "lat": 24.986099243164,
            "lng": 121.52100372314,
            "service": "提款服務,悠遊卡加值,咖啡機,Life-ET(購票)服務,一卡通",
            "_id": "718"
        },
        {
            "name": "北縣輔園店",
            "address": "新北市新莊區242中正路510號",
            "phone": "02-29017165 ",
            "lat": 25.033700942993,
            "lng": 121.43499755859,
            "service": "悠遊卡加值,咖啡機,相片沖洗機,Life-ET(購票)服務,一卡通",
            "_id": "593"
        },
        {
            "name": "新莊文園店",
            "address": "新北市新莊區242中正路510號",
            "phone": "02-89782498",
            "lat": 25.03569984436,
            "lng": 121.43299865723,
            "service": "悠遊卡加值,咖啡機,相片沖洗機,Life-ET(購票)服務,一卡通",
            "_id": "910"
        },
        {
            "name": "新莊凱悅店",
            "address": "新北市新莊區242中正路891之51、891之52號",
            "phone": "02-89785478",
            "lat": 25.022100448608,
            "lng": 121.41300201416,
            "service": "提款服務,悠遊卡加值,咖啡機,霜淇淋機,Life-ET(購票)服務,一卡通",
            "_id": "812"
        },
        {
            "name": "北縣莊月二店",
            "address": "新北市新莊區242中和街19號",
            "phone": "",
            "lat": 25.043699264526,
            "lng": 121.44805145264,
            "service": "",
            "_id": "351"
        },
        {
            "name": "北縣莊月店",
            "address": "新北市新莊區242中和街19號",
            "phone": "02-29926407",
            "lat": 25.043699264526,
            "lng": 121.44799804688,
            "service": "提款服務,悠遊卡加值,咖啡機,相片沖洗機,Life-ET(購票)服務,一卡通",
            "_id": "353"
        },
        {
            "name": "新莊祐信店",
            "address": "新北市新莊區242中信街20號一樓全部、22號一樓部份",
            "phone": "02-89783774",
            "lat": 25.050899505615,
            "lng": 121.45099639893,
            "service": "提款服務,悠遊卡加值,咖啡機,相片沖洗機,Life-ET(購票)服務,一卡通",
            "_id": "726"
        },
        {
            "name": "新莊品莊店",
            "address": "新北市新莊區242中原東路91號1樓",
            "phone": "02-89783484",
            "lat": 25.054300308228,
            "lng": 121.46299743652,
            "service": "",
            "_id": "894"
        },
        {
            "name": "新莊中泉店",
            "address": "新北市新莊區242中誠街161號及163號一樓全部",
            "phone": "02-89786748",
            "lat": 25.047300338745,
            "lng": 121.44899749756,
            "service": "一卡通",
            "_id": "834"
        },
        {
            "name": "北縣莊成店",
            "address": "新北市新莊區242中誠街44號",
            "phone": "02-22761346",
            "lat": 25.048099517822,
            "lng": 121.45099639893,
            "service": "提款服務,悠遊卡加值,Life-ET(購票)服務,一卡通",
            "_id": "156"
        },
        {
            "name": "新莊鑫鴻店",
            "address": "新北市新莊區242化成路13、17號一樓全部",
            "phone": "02-89783928",
            "lat": 25.043399810791,
            "lng": 121.46499633789,
            "service": "提款服務,悠遊卡加值,咖啡機,相片沖洗機,Life-ET(購票)服務,一卡通",
            "_id": "660"
        },
        {
            "name": "北縣化成二店",
            "address": "新北市新莊區242化成路205號",
            "phone": "02-29979341",
            "lat": 25.051200866699,
            "lng": 121.46600341797,
            "service": "提款服務,悠遊卡加值,咖啡機,相片沖洗機,Life-ET(購票)服務,一卡通",
            "_id": "1011"
        },
        {
            "name": "北縣莊富店",
            "address": "新北市新莊區242化成路738、740號",
            "phone": "02-85214319",
            "lat": 25.057500839233,
            "lng": 121.46600341797,
            "service": "提款服務,悠遊卡加值,咖啡機,相片沖洗機,Life-ET(購票)服務,一卡通",
            "_id": "428"
        },
        {
            "name": "北縣莊廣店",
            "address": "新北市新莊區242化成路85號",
            "phone": "02-22777100",
            "lat": 25.046499252319,
            "lng": 121.46499633789,
            "service": "提款服務,悠遊卡加值,咖啡機,Life-ET(購票)服務,一卡通",
            "_id": "71"
        },
        {
            "name": "北縣莊民店",
            "address": "新北市新莊區242民樂街80、82號一樓",
            "phone": "02-29926567",
            "lat": 25.043800354004,
            "lng": 121.45800018311,
            "service": "提款服務,悠遊卡加值,咖啡機,相片沖洗機,Life-ET(購票)服務,一卡通",
            "_id": "486"
        },
        {
            "name": "北縣莊玲店",
            "address": "新北市新莊區242自信街77號+75巷2號",
            "phone": "02-29938588",
            "lat": 25.048299789429,
            "lng": 121.45600128174,
            "service": "提款服務,悠遊卡加值,咖啡機,Life-ET(購票)服務,一卡通",
            "_id": "1168"
        },
        {
            "name": "北縣莊勝店",
            "address": "新北市新莊區242幸福路562號",
            "phone": "02-89943683",
            "lat": 25.04940032959,
            "lng": 121.45500183105,
            "service": "提款服務,悠遊卡加值,咖啡機,Life-ET(購票)服務,一卡通",
            "_id": "360"
        },
        {
            "name": "北縣莊華店",
            "address": "新北市新莊區242昌隆街5號壹樓",
            "phone": "02-89935209",
            "lat": 25.050899505615,
            "lng": 121.45400238037,
            "service": "提款服務,悠遊卡加值,Life-ET(購票)服務,一卡通",
            "_id": "1045"
        },
        {
            "name": "北縣莊國店",
            "address": "新北市新莊區242復興路二段31號",
            "phone": "02-29967066",
            "lat": 25.04400062561,
            "lng": 121.45400238037,
            "service": "提款服務,悠遊卡加值,咖啡機,相片沖洗機,Life-ET(購票)服務,一卡通",
            "_id": "384"
        },
        {
            "name": "北縣莊榮店",
            "address": "新北市新莊區242新莊路307、309號一樓部份",
            "phone": "02-22765940",
            "lat": 25.034299850464,
            "lng": 121.45300292969,
            "service": "提款服務,悠遊卡加值,咖啡機,相片沖洗機,Life-ET(購票)服務,一卡通",
            "_id": "560"
        },
        {
            "name": "北縣新樹店",
            "address": "新北市新莊區242新樹路210號",
            "phone": "02-22038431",
            "lat": 25.020500183105,
            "lng": 121.43399810791,
            "service": "提款服務,悠遊卡加值,咖啡機,相片沖洗機,Life-ET(購票)服務",
            "_id": "41"
        },
        {
            "name": "北縣莊年店",
            "address": "新北市新莊區242新豐街11號",
            "phone": "02-22019242",
            "lat": 25.034299850464,
            "lng": 121.44899749756,
            "service": "提款服務,悠遊卡加值,咖啡機,Life-ET(購票)服務,一卡通",
            "_id": "109"
        },
        {
            "name": "北縣新裕店",
            "address": "新北市新莊區242裕民街83之6號",
            "phone": "02-29044633",
            "lat": 25.023599624634,
            "lng": 121.41899871826,
            "service": "提款服務,悠遊卡加值,咖啡機,相片沖洗機,Life-ET(購票)服務,一卡通",
            "_id": "1004"
        },
        {
            "name": "新莊美福店",
            "address": "新北市新莊區242福美街98號及福德二街57號",
            "phone": "02-89787469",
            "lat": 25.057399749756,
            "lng": 121.46099853516,
            "service": "悠遊卡加值,咖啡機,相片沖洗機,Life-ET(購票)服務,一卡通",
            "_id": "860"
        },
        {
            "name": "新莊福祐店",
            "address": "新北市新莊區242福壽街188、190號一樓全部",
            "phone": "02-89782093",
            "lat": 25.053199768066,
            "lng": 121.45800018311,
            "service": "提款服務,悠遊卡加值,咖啡機,相片沖洗機,Life-ET(購票)服務,一卡通",
            "_id": "707"
        },
        {
            "name": "北縣福營店",
            "address": "新北市新莊區242福營路336,338號",
            "phone": "02-29033571",
            "lat": 25.02680015564,
            "lng": 121.42199707031,
            "service": "提款服務,悠遊卡加值,相片沖洗機,Life-ET(購票)服務",
            "_id": "1001"
        },
        {
            "name": "新莊鼎豐店",
            "address": "新北市新莊區242頭前路125、127號一樓全部",
            "phone": "02-89781429",
            "lat": 25.052299499512,
            "lng": 121.46099853516,
            "service": "",
            "_id": "886"
        },
        {
            "name": "北縣豐年店",
            "address": "新北市新莊區242豐年街118之1號",
            "phone": "02-22063732",
            "lat": 25.030199050903,
            "lng": 121.44599914551,
            "service": "提款服務,悠遊卡加值,咖啡機,Life-ET(購票)服務,一卡通",
            "_id": "1108"
        },
        {
            "name": "新莊雙鳳店",
            "address": "新北市新莊區242雙鳳路53號一樓全部",
            "phone": "02-89783919",
            "lat": 25.027200698853,
            "lng": 121.41600036621,
            "service": "提款服務,悠遊卡加值,咖啡機,相片沖洗機,Life-ET(購票)服務,一卡通",
            "_id": "711"
        },
        {
            "name": "北縣瓊林南店",
            "address": "新北市新莊區242瓊林南路133號",
            "phone": "02-22037151",
            "lat": 25.012599945068,
            "lng": 121.43399810791,
            "service": "悠遊卡加值,咖啡機,Life-ET(購票)服務,一卡通",
            "_id": "36"
        },
        {
            "name": "新莊瓊泰店",
            "address": "新北市新莊區242瓊泰路59號及61號",
            "phone": "02-89787449",
            "lat": 25.028600692749,
            "lng": 121.44300079346,
            "service": "提款服務,悠遊卡加值,咖啡機,相片沖洗機,霜淇淋機,Life-ET(購票)服務,一卡通",
            "_id": "871"
        },
        {
            "name": "瑞芳鑫九店",
            "address": "新北市瑞芳區224汽車路93-2號、93-3號、93-5號一樓全部及93-1號一樓部份  ",
            "phone": "02-24063923",
            "lat": 25.109399795532,
            "lng": 121.84300231934,
            "service": "悠遊卡加值,咖啡機,Life-ET(購票)服務,一卡通",
            "_id": "654"
        },
        {
            "name": "北縣樹俊店",
            "address": "新北市樹林區238三俊街254號",
            "phone": "02-26763526",
            "lat": 25.014799118042,
            "lng": 121.42099761963,
            "service": "提款服務,悠遊卡加值,咖啡機,Life-ET(購票)服務,一卡通",
            "_id": "44"
        },
        {
            "name": "北縣樹鑽店",
            "address": "新北市樹林區238三俊街72-1號",
            "phone": "02-26762315",
            "lat": 25.01549911499,
            "lng": 121.41300201416,
            "service": "提款服務,悠遊卡加值,咖啡機,相片沖洗機,Life-ET(購票)服務,一卡通",
            "_id": "422"
        },
        {
            "name": "北縣樹興店",
            "address": "新北市樹林區238千歲街90號",
            "phone": "02-26757098",
            "lat": 24.997800827026,
            "lng": 121.42700195312,
            "service": "提款服務,悠遊卡加值,咖啡機,Life-ET(購票)服務",
            "_id": "1056"
        },
        {
            "name": "北縣樹正店",
            "address": "新北市樹林區238中正路791及789號",
            "phone": "02-26765236",
            "lat": 25.016199111938,
            "lng": 121.41000366211,
            "service": "提款服務,悠遊卡加值,咖啡機,Life-ET(購票)服務,一卡通",
            "_id": "1231"
        },
        {
            "name": "北縣樹宏店",
            "address": "新北市樹林區238中興街60號及中山路108巷57號",
            "phone": "02-86874617",
            "lat": 24.99169921875,
            "lng": 121.42099761963,
            "service": "提款服務,悠遊卡加值,咖啡機,相片沖洗機,Life-ET(購票)服務,一卡通",
            "_id": "373"
        },
        {
            "name": "北縣樹太店",
            "address": "新北市樹林區238太平路150巷38號",
            "phone": "02-86864617",
            "lat": 24.977500915527,
            "lng": 121.41699981689,
            "service": "提款服務,悠遊卡加值,咖啡機,相片沖洗機,Life-ET(購票)服務,一卡通",
            "_id": "1046"
        },
        {
            "name": "物流分公司",
            "address": "新北市樹林區238味王街3號",
            "phone": "",
            "lat": 24.974761962891,
            "lng": 121.4044418335,
            "service": "",
            "_id": "266"
        },
        {
            "name": "北縣樹佳店",
            "address": "新北市樹林區238味王街3號及7號",
            "phone": "02-86851470",
            "lat": 24.975999832153,
            "lng": 121.40299987793,
            "service": "提款服務,悠遊卡加值,咖啡機,霜淇淋機,Life-ET(購票)服務,一卡通",
            "_id": "371"
        },
        {
            "name": "北縣樹玉店",
            "address": "新北市樹林區238忠孝街45號,47號,49號",
            "phone": "02-86855460",
            "lat": 24.981599807739,
            "lng": 121.42400360107,
            "service": "提款服務,悠遊卡加值,咖啡機,Life-ET(購票)服務",
            "_id": "591"
        },
        {
            "name": "北縣樹榮店",
            "address": "新北市樹林區238東榮街123號及125號",
            "phone": "02-86865847",
            "lat": 24.982000350952,
            "lng": 121.41500091553,
            "service": "悠遊卡加值,咖啡機,相片沖洗機,Life-ET(購票)服務,一卡通",
            "_id": "488"
        },
        {
            "name": "北縣樹愛店",
            "address": "新北市樹林區238保安街一段18-3號",
            "phone": "02-86872284",
            "lat": 24.99340057373,
            "lng": 121.42800140381,
            "service": "提款服務,悠遊卡加值,咖啡機,Life-ET(購票)服務",
            "_id": "1060"
        },
        {
            "name": "樹林保安店",
            "address": "新北市樹林區238保安街二段293-1號及293號壹樓",
            "phone": "02-89787634",
            "lat": 25.006299972534,
            "lng": 121.41200256348,
            "service": "悠遊卡加值,咖啡機,Life-ET(購票)服務,一卡通",
            "_id": "833"
        },
        {
            "name": "樹林樹園店",
            "address": "新北市樹林區238柑園街一段190號",
            "phone": "02-89787249",
            "lat": 24.956600189209,
            "lng": 121.39499664307,
            "service": "悠遊卡加值,咖啡機,Life-ET(購票)服務,一卡通",
            "_id": "804"
        },
        {
            "name": "北縣樹東店",
            "address": "新北市樹林區238柑園街一段49號",
            "phone": "02-26689901",
            "lat": 24.96010017395,
            "lng": 121.40299987793,
            "service": "提款服務,悠遊卡加值,咖啡機,Life-ET(購票)服務",
            "_id": "127"
        },
        {
            "name": "樹林慶園店",
            "address": "新北市樹林區238柑園街二段278號1、2樓全部(含鐵皮)及280號1樓部份",
            "phone": "02-89783864",
            "lat": 24.952100753784,
            "lng": 121.37400054932,
            "service": "悠遊卡加值,咖啡機,Life-ET(購票)服務,一卡通",
            "_id": "909"
        },
        {
            "name": "樹林嘉聯益店",
            "address": "新北市樹林區238博愛街248號",
            "phone": "02-86858309",
            "lat": 24.985000610352,
            "lng": 121.422996521,
            "service": "悠遊卡加值,咖啡機,Life-ET(購票)服務,一卡通",
            "_id": "635"
        },
        {
            "name": "北縣樹博店",
            "address": "新北市樹林區238博愛街86號",
            "phone": "02-86755660",
            "lat": 24.99220085144,
            "lng": 121.42700195312,
            "service": "提款服務,悠遊卡加值,Life-ET(購票)服務,一卡通",
            "_id": "225"
        },
        {
            "name": "蘆洲蘆鑫店",
            "address": "新北市蘆洲區247中山一路293\/293-1號全部",
            "phone": "02-82832658",
            "lat": 25.079200744629,
            "lng": 121.47200012207,
            "service": "提款服務,悠遊卡加值,咖啡機,相片沖洗機,Life-ET(購票)服務,一卡通",
            "_id": "653"
        },
        {
            "name": "蘆洲民祐店",
            "address": "新北市蘆洲區247中正路314號一樓全部、三民路499號一樓全部",
            "phone": "02-89783693",
            "lat": 25.090900421143,
            "lng": 121.46499633789,
            "service": "悠遊卡加值,咖啡機,Life-ET(購票)服務,一卡通",
            "_id": "727"
        },
        {
            "name": "北縣蘆旺店",
            "address": "新北市蘆洲區247正和街47號",
            "phone": "02-28474042",
            "lat": 25.081399917603,
            "lng": 121.46900177002,
            "service": "提款服務,悠遊卡加值,咖啡機,Life-ET(購票)服務,一卡通",
            "_id": "252"
        },
        {
            "name": "北縣鷺江店",
            "address": "新北市蘆洲區247民權路113號",
            "phone": "02-22850256",
            "lat": 25.089500427246,
            "lng": 121.47200012207,
            "service": "提款服務,悠遊卡加值,咖啡機,Life-ET(購票)服務",
            "_id": "1007"
        },
        {
            "name": "北縣蘆平店",
            "address": "新北市蘆洲區247永平街30號",
            "phone": "02-22819326",
            "lat": 25.090900421143,
            "lng": 121.45899963379,
            "service": "提款服務,悠遊卡加值,咖啡機,相片沖洗機,Life-ET(購票)服務",
            "_id": "1062"
        },
        {
            "name": "蘆洲祐誠店",
            "address": "新北市蘆洲區247永樂街38巷32.34號",
            "phone": "02-89783340",
            "lat": 25.089700698853,
            "lng": 121.45800018311,
            "service": "悠遊卡加值,咖啡機,相片沖洗機,Life-ET(購票)服務,一卡通",
            "_id": "732"
        },
        {
            "name": "蘆洲光榮店",
            "address": "新北市蘆洲區247光榮路68、70號一樓全部",
            "phone": "02-22891116",
            "lat": 25.088499069214,
            "lng": 121.46299743652,
            "service": "提款服務,悠遊卡加值,咖啡機,相片沖洗機,Life-ET(購票)服務,一卡通",
            "_id": "624"
        },
        {
            "name": "北縣長安二店",
            "address": "新北市蘆洲區247長安街66號",
            "phone": "02-28481497",
            "lat": 25.080099105835,
            "lng": 121.46299743652,
            "service": "提款服務,悠遊卡加值,咖啡機,相片沖洗機,Life-ET(購票)服務,一卡通",
            "_id": "1223"
        },
        {
            "name": "蘆洲長樂店",
            "address": "新北市蘆洲區247長樂路22號",
            "phone": "02-89785422",
            "lat": 25.085300445557,
            "lng": 121.46399688721,
            "service": "提款服務,悠遊卡加值,咖啡機,Life-ET(購票)服務,一卡通",
            "_id": "800"
        },
        {
            "name": "北縣蘆信店",
            "address": "新北市蘆洲區247信義路35號",
            "phone": "02-22827585",
            "lat": 25.079500198364,
            "lng": 121.47399902344,
            "service": "提款服務,悠遊卡加值,咖啡機,Life-ET(購票)服務,一卡通",
            "_id": "390"
        },
        {
            "name": "蘆洲得勝店",
            "address": "新北市蘆洲區247得勝街108號一樓",
            "phone": "02-89786854",
            "lat": 25.082899093628,
            "lng": 121.47100067139,
            "service": "提款服務,悠遊卡加值,咖啡機,相片沖洗機,Life-ET(購票)服務",
            "_id": "878"
        },
        {
            "name": "北縣集賢店",
            "address": "新北市蘆洲區247集賢路226號",
            "phone": "02-28472951",
            "lat": 25.086500167847,
            "lng": 121.4820022583,
            "service": "提款服務,悠遊卡加值,咖啡機,Life-ET(購票)服務,一卡通",
            "_id": "1010"
        },
        {
            "name": "北縣蘆江店",
            "address": "新北市蘆洲區247鷺江街69號一樓",
            "phone": "02-22886490",
            "lat": 25.082799911499,
            "lng": 121.47699737549,
            "service": "提款服務,悠遊卡加值,咖啡機,Life-ET(購票)服務",
            "_id": "226"
        },
        {
            "name": "北縣大湖店",
            "address": "新北市鶯歌區239大湖路366號及中湖街2號",
            "phone": "02-86774539",
            "lat": 24.972900390625,
            "lng": 121.34600067139,
            "service": "提款服務,悠遊卡加值,咖啡機,Life-ET(購票)服務,一卡通",
            "_id": "35"
        },
        {
            "name": "北縣鶯國店",
            "address": "新北市鶯歌區239大湖路532,534號",
            "phone": "02-86776526",
            "lat": 24.972700119019,
            "lng": 121.33699798584,
            "service": "提款服務,悠遊卡加值,咖啡機,相片沖洗機,Life-ET(購票)服務,一卡通",
            "_id": "348"
        },
        {
            "name": "北縣鶯歌店",
            "address": "新北市鶯歌區239重慶街29號",
            "phone": "02-26781881",
            "lat": 24.952499389648,
            "lng": 121.35199737549,
            "service": "提款服務,悠遊卡加值,咖啡機,相片沖洗機,Life-ET(購票)服務,一卡通",
            "_id": "1226"
        },
        {
            "name": "北縣鶯駿店",
            "address": "新北市鶯歌區239德昌街50號",
            "phone": "02-26773190",
            "lat": 24.959899902344,
            "lng": 121.33300018311,
            "service": "提款服務,悠遊卡加值,咖啡機,相片沖洗機,Life-ET(購票)服務,一卡通",
            "_id": "167"
        },
        {
            "name": "鶯歌鳳鳴店",
            "address": "新北市鶯歌區239鶯桃路547號及549號",
            "phone": "02-89787624",
            "lat": 24.968000411987,
            "lng": 121.33000183105,
            "service": "提款服務,悠遊卡加值,咖啡機,Life-ET(購票)服務,一卡通",
            "_id": "855"
        }
    ]
}